Time (s), Acceleration x (m/s^2), Acceleration y (m/s^2), Acceleration z (m/s^2), Angular velocity p (rad/s), Angular velocity q (rad/s), Angular velocity r (rad/s), Magnetic field x (muT), Magnetic field y (muT), Magnetic field z (muT), Roll angle phi (deg), Pitch angle theta (deg), Yaw angle psi (deg), GPS Latitude (DDMM.MMMM), GPS Longiude (DDMM.MMMM), GPS Altitude (cm), GPS Speed (knots), GPS Heading (deg), GPS Number of Satellites
0.081, -0.7845, 0.1177, 10.4343, -0.2068, 1.6003, -0.5962, -28.3636, -19.0909, -26.4286, 0.4197, 4.3986, 149.8708, 0.0000, 0.0000, 0.00, 0.00, 0.00, 0
0.108, -0.8238, 0.0785, 10.3951, 0.0124, 0.9001, 0.0050, -28.3636, -19.0909, -26.4286, 0.4324, 4.5308, 149.9707, 0.0000, 0.0000, 0.00, 0.00, 0.00, 0
0.128, -0.8238, 0.1177, 10.4735, 0.0101, 0.0338, 0.1252, -28.3636, -19.0909, -26.4286, 0.6437, 4.4969, 150.2026, 0.0000, 0.0000, 0.00, 0.00, 0.00, 0
0.147, -0.8238, 0.1177, 10.5127, -0.0150, 0.2130, -0.0254, -28.4545, -19.0000, -26.7347, 0.6413, 4.4802, 150.4245, 0.0000, 0.0000, 0.00, 0.00, 0.00, 0
0.172, -0.7845, 0.0785, 10.5127, -0.0024, 0.0909, 0.0079, -28.4545, -19.0000, -26.7347, 0.4324, 4.7456, 150.3399, 0.0000, 0.0000, 0.00, 0.00, 0.00, 0
0.191, -0.7453, 0.1177, 10.4343, -0.0014, 0.0732, -0.0147, -28.4545, -19.0000, -26.7347, 0.6511, 4.9788, 150.7489, 0.0000, 0.0000, 0.00, 0.00, 0.00, 0
0.210, -0.8630, 0.1961, 10.5520, -0.0035, 0.0930, -0.0087, -28.5455, -18.9091, -27.0408, 0.2154, 4.5140, 150.1595, 0.0000, 0.0000, 0.00, 0.00, 0.00, 0
0.229, -0.8630, 0.0785, 10.5127, -0.0034, 0.0845, -0.0111, -28.5455, -18.9091, -27.0408, 0.4276, 4.6927, 150.5324, 0.0000, 0.0000, 0.00, 0.00, 0.00, 0
0.254, -0.8630, 0.0785, 10.4735, -0.0021, 0.0858, -0.0107, -28.5455, -18.9091, -27.0408, 0.6319, 4.4145, 150.6052, 0.0000, 0.0000, 0.00, 0.00, 0.00, 0
0.273, -0.8630, 0.0392, 10.4343, -0.0035, 0.0880, -0.0111, -28.5455, -18.9091, -27.0408, 0.2130, 4.4638, 149.9647, 0.0000, 0.0000, 0.00, 0.00, 0.00, 0
0.292, -0.7845, 0.0785, 10.4343, -0.0035, 0.0811, -0.0125, -28.5455, -19.0000, -26.7347, 0.6319, 4.6239, 150.5720, 0.0000, 0.0000, 0.00, 0.00, 0.00, 0
0.318, -0.8630, 0.1177, 10.5127, -0.0037, 0.0887, -0.0095, -28.5455, -19.0000, -26.7347, 0.6413, 4.6926, 150.6265, 0.0000, 0.0000, 0.00, 0.00, 0.00, 0
0.336, -0.8238, 0.0785, 10.4735, -0.0038, 0.0883, -0.0144, -28.5455, -19.0000, -26.7347, 0.4292, 4.4970, 150.2462, 0.0000, 0.0000, 0.00, 0.00, 0.00, 0
0.356, -0.8630, 0.0392, 10.4343, -0.0044, 0.0878, -0.0098, -28.2727, -19.1818, -26.3265, 0.2154, 4.7280, 149.6357, 0.0000, 0.0000, 0.00, 0.00, 0.00, 0
0.381, -0.8630, 0.0785, 10.4735, -0.0041, 0.0864, -0.0095, -28.2727, -19.1818, -26.3265, 0.2146, 4.7103, 149.6235, 0.0000, 0.0000, 0.00, 0.00, 0.00, 0
0.400, -0.7845, 0.0000, 10.3558, -0.0044, 0.0851, -0.0073, -28.2727, -19.1818, -26.3265, 0.2114, 4.6411, 149.5755, 0.0000, 0.0000, 0.00, 0.00, 0.00, 0
0.419, -0.8238, 0.0785, 10.4343, -0.0043, 0.0904, -0.0116, -28.4545, -18.7273, -26.5306, 0.6413, 4.4802, 150.7595, 0.0000, 0.0000, 0.00, 0.00, 0.00, 0
0.439, -0.8630, 0.1177, 10.5127, -0.0043, 0.0869, -0.0118, -28.4545, -18.7273, -26.5306, 0.6390, 4.6752, 150.8783, 0.0000, 0.0000, 0.00, 0.00, 0.00, 0
0.465, -0.7845, 0.0785, 10.3951, -0.0031, 0.0857, -0.0122, -28.4545, -18.7273, -26.5306, 0.4324, 4.3159, 150.4014, 4216.4736, 7148.4175, 183.80, 0.00, 0.00, 3
0.485, -0.9022, 0.0785, 10.5127, -0.0009, 0.0809, -0.0125, -28.1818, -18.9091, -26.8367, 0.4276, 4.9050, 150.3663, 4216.4736, 7148.4175, 183.80, 0.00, 0.00, 3
0.505, -0.8238, 0.0000, 10.4735, -0.0026, 0.0849, -0.0127, -28.1818, -18.9091, -26.8367, 0.0000, 4.4972, 149.5851, 4216.4736, 7148.4175, 183.80, 0.00, 0.00, 3
0.530, -0.8238, 0.1177, 10.5127, -0.0043, 0.0880, -0.0089, -28.1818, -18.9091, -26.8367, 0.6366, 4.6580, 150.4638, 4216.4736, 7148.4175, 183.80, 0.00, 0.00, 3
0.551, -0.8630, 0.1177, 10.5127, -0.0009, 0.0846, -0.0153, -28.1818, -18.9091, -26.9388, 0.6437, 4.4969, 150.3843, 4216.4736, 7148.4175, 183.80, 0.41, 127.65, 3
0.571, -0.8630, 0.1569, 10.5520, -0.0052, 0.0877, -0.0073, -28.1818, -18.9091, -26.9388, 0.0000, 4.5310, 149.6199, 4216.4736, 7148.4175, 183.80, 0.41, 127.65, 3
0.600, -0.7845, 0.0392, 10.4343, -0.0053, 0.0835, -0.0096, -28.1818, -18.9091, -26.9388, 0.4292, 4.2837, 149.9798, 4216.4736, 7148.4175, 183.80, 0.41, 127.65, 3
0.619, -0.7845, 0.1177, 10.3951, -0.0040, 0.0884, -0.0107, -28.1818, -18.9091, -27.2449, 0.6437, 4.2835, 150.2895, 4216.4736, 7148.4175, 183.80, 0.41, 127.65, 3
0.638, -0.7845, 0.0785, 10.5912, -0.0027, 0.0909, -0.0122, -28.1818, -18.9091, -27.2449, 0.4276, 4.6927, 150.2895, 4216.4736, 7148.4175, 183.80, 0.41, 127.65, 3
0.665, -0.7845, 0.0000, 10.5127, -0.0024, 0.0864, -0.0122, -28.1818, -18.9091, -27.2449, 0.0000, 4.2679, 149.4797, 4216.4736, 7148.4175, 183.80, 0.41, 127.65, 3
0.685, -0.7845, 0.1177, 10.4343, -0.0032, 0.0867, -0.0107, -28.1818, -18.8182, -26.8367, 0.6462, 4.2996, 150.5044, 4216.4736, 7148.4175, 183.80, 0.41, 127.65, 3
0.704, -0.9022, 0.1177, 10.5127, -0.0029, 0.0843, -0.0125, -28.3636, -18.8182, -26.8367, 0.6413, 4.9049, 150.8822, 4216.4736, 7148.4175, 183.80, 0.41, 127.65, 3
0.724, -0.7845, 0.1177, 10.3558, -0.0041, 0.0858, -0.0093, -28.3636, -18.8182, -26.8367, 0.6511, 4.3320, 150.5314, 4216.4736, 7148.4175, 183.80, 0.41, 127.65, 3
0.750, -0.8238, 0.0785, 10.3951, -0.0035, 0.0887, -0.0108, -28.3636, -18.8182, -26.8367, 0.2146, 4.2838, 0.0000, 4216.4736, 7148.4175, 183.80, 0.41, 127.65, 3
0.778, -0.7845, 0.0785, 10.3951, -0.0035, 0.0849, -0.0128, -28.5455, -18.7273, -26.8367, 0.4324, 4.3159, 150.5111, 4216.4736, 7148.4175, 183.80, 0.41, 127.65, 3
0.808, -0.8238, 0.0392, 10.5127, -0.0031, 0.0866, -0.0104, -28.5455, -18.7273, -26.8367, 0.4292, 4.4970, 150.6231, 4216.4736, 7148.4175, 183.80, 0.41, 127.65, 3
0.835, -0.8630, 0.0785, 10.4735, -0.0038, 0.0866, -0.0098, -28.3636, -19.0000, -26.7347, 0.4292, 4.7102, 150.2454, 4216.4736, 7148.4175, 183.80, 0.41, 127.65, 3
0.855, -0.8630, 0.0785, 10.4343, -0.0038, 0.0872, -0.0090, -28.3636, -19.0000, -26.7347, 0.4308, 4.7279, 150.2585, 4216.4736, 7148.4175, 183.80, 0.41, 127.65, 3
0.875, -0.8630, 0.0785, 10.4343, -0.0041, 0.0880, -0.0108, -28.3636, -19.0000, -26.7347, 0.4308, 4.7279, 150.2585, 4216.4736, 7148.4175, 183.80, 0.41, 127.65, 3
0.901, -0.8630, 0.1177, 10.3951, -0.0032, 0.0881, -0.0122, -28.4545, -19.0000, -26.5306, 0.6462, 4.7277, 150.5555, 4216.4736, 7148.4175, 183.80, 0.41, 127.65, 3
0.920, -0.8630, 0.0785, 10.4735, -0.0027, 0.0893, -0.0115, -28.4545, -19.0000, -26.5306, 0.6437, 4.7101, 150.5416, 4216.4736, 7148.4175, 183.80, 0.41, 127.65, 3
0.941, -0.8238, 0.0785, 10.5520, -0.0037, 0.0886, -0.0110, -28.4545, -19.0000, -26.5306, 0.2138, 4.2679, 149.7432, 4216.4736, 7148.4175, 183.80, 0.41, 127.65, 3
0.966, -0.8630, 0.0785, 10.5127, -0.0021, 0.0870, -0.0110, -28.3636, -19.0000, -26.7347, 0.4276, 4.6927, 150.2323, 4216.4736, 7148.4175, 183.80, 0.41, 127.65, 3
0.987, -0.8630, 0.0785, 10.4343, -0.0038, 0.0896, -0.0099, -28.3636, -19.0000, -26.7347, 0.4308, 4.7279, 150.2585, 4216.4736, 7148.4175, 183.80, 0.41, 127.65, 3
1.006, -0.8238, 0.0785, 10.4343, -0.0043, 0.0858, -0.0104, -28.3636, -19.0000, -26.7347, 0.4308, 4.5139, 150.1216, 4216.4736, 7148.4175, 183.80, 0.41, 127.65, 3
1.032, -0.8238, 0.0392, 10.4735, -0.0026, 0.0843, -0.0116, -28.5455, -18.8182, -26.5306, 0.6437, 4.9231, 150.9820, 4216.4736, 7148.4175, 183.80, 0.41, 127.65, 3
1.052, -0.8238, 0.0785, 10.4343, -0.0038, 0.0855, -0.0076, -28.5455, -18.8182, -26.5306, 0.4244, 4.6581, 150.5551, 4216.4736, 7148.4175, 183.80, 0.41, 127.65, 3
1.072, -0.8238, 0.0785, 10.5127, -0.0029, 0.0863, -0.0118, -28.5455, -18.8182, -26.5306, 0.4276, 4.2678, 150.3118, 4216.4736, 7148.4175, 183.80, 0.41, 127.65, 3
1.097, -0.7845, 0.0785, 10.5127, -0.0035, 0.0870, -0.0095, -28.6364, -18.7273, -26.7347, 0.2122, 4.2364, 150.2470, 4216.4736, 7148.4175, 183.80, 0.41, 127.65, 3
1.118, -0.8238, 0.0785, 10.5127, -0.0041, 0.0878, -0.0096, -28.6364, -18.7273, -26.7347, 0.4276, 4.4803, 150.6643, 4216.4736, 7148.4175, 183.80, 0.41, 127.65, 3
1.137, -0.8630, 0.0785, 10.5912, -0.0027, 0.0874, -0.0131, -28.6364, -18.7273, -26.7347, 0.2138, 4.6928, 150.5402, 4216.4736, 7148.4175, 183.80, 0.41, 127.65, 3
1.158, -0.7845, 0.1177, 10.5520, -0.0035, 0.0874, -0.0121, -28.6364, -18.7273, -26.7347, 0.2122, 4.2364, 150.2470, 4216.4736, 7148.4175, 183.80, 0.41, 127.65, 3
1.185, -0.8238, 0.1177, 10.4735, -0.0032, 0.0880, -0.0098, -28.1818, -18.9091, -26.8367, 0.6437, 4.4969, 150.3691, 4216.4736, 7148.4175, 183.80, 0.41, 127.65, 3
1.206, -0.8630, 0.1177, 10.4343, -0.0029, 0.0858, -0.0127, -28.1818, -18.9091, -26.8367, 0.6462, 4.7277, 150.5200, 4216.4736, 7148.4175, 183.80, 0.41, 127.65, 3
1.225, -0.8238, 0.0785, 10.5912, -0.0046, 0.0893, -0.0116, -28.1818, -18.9091, -26.8367, 0.4244, 4.4473, 150.0676, 4216.4736, 7148.4175, 183.80, 0.41, 127.65, 3
1.252, -0.8630, 0.0392, 10.5127, -0.0035, 0.0887, -0.0131, -28.4545, -18.7273, -26.7347, 0.4292, 4.7102, 150.6759, 4216.4736, 7148.4175, 183.80, 0.41, 127.65, 3
1.271, -0.7845, 0.1177, 10.4735, -0.0029, 0.0875, -0.0148, -28.4545, -18.7273, -26.7347, 0.6390, 4.6752, 150.9092, 4216.4736, 7148.4175, 183.80, 0.41, 127.65, 3
1.292, -0.8238, 0.0785, 10.5127, -0.0029, 0.0890, -0.0122, -28.4545, -18.7273, -26.7347, 0.2138, 4.2679, 150.1313, 4216.4736, 7148.4175, 183.80, 0.41, 127.65, 3
1.317, -0.8630, 0.0392, 10.6304, -0.0031, 0.0870, -0.0144, -28.1818, -19.0909, -26.7347, 0.4276, 4.4803, 149.8363, 4216.4736, 7148.4175, 183.80, 0.41, 127.65, 3
1.338, -0.7845, 0.0785, 10.4735, -0.0037, 0.0863, -0.0093, -28.1818, -19.0909, -26.7347, 0.2170, 4.5480, 149.6264, 4216.4736, 7148.4175, 183.80, 0.41, 127.65, 3
1.357, -0.7453, 0.0392, 10.4343, -0.0037, 0.0877, -0.0105, -28.1818, -19.0909, -26.7347, 0.4276, 4.2678, 149.6966, 4216.4736, 7148.4175, 183.80, 0.41, 127.65, 3
1.384, -0.7845, 0.0785, 10.4343, -0.0031, 0.0857, -0.0116, -28.0909, -19.0000, -26.8367, 0.4308, 4.2997, 149.7867, 4216.4736, 7148.4175, 183.80, 0.41, 127.65, 3
1.403, -0.8630, 0.0785, 10.4343, -0.0038, 0.0875, -0.0078, -28.0909, -19.0000, -26.8367, 0.4308, 4.7279, 150.0672, 4216.4736, 7148.4175, 183.80, 0.41, 127.65, 3
1.424, -0.8238, 0.0000, 10.4735, -0.0017, 0.0924, -0.0150, -28.0909, -19.0000, -26.8367, 0.0000, 4.4972, 149.3945, 4216.4736, 7148.4175, 183.80, 0.41, 127.65, 3
1.448, -0.8238, 0.0392, 10.4735, -0.0032, 0.0896, -0.0098, -28.2727, -19.0909, -26.6327, 0.6390, 4.4636, 150.1369, 4216.4736, 7148.4175, 183.80, 0.41, 127.65, 3
1.469, -0.9022, 0.0785, 10.5127, -0.0027, 0.0918, -0.0102, -28.2727, -19.0909, -26.6327, 0.6366, 5.0793, 150.5225, 4216.4736, 7148.4175, 183.80, 0.41, 127.65, 3
1.489, -0.7845, 0.0392, 10.5127, -0.0031, 0.0878, -0.0118, -28.2727, -19.0909, -26.6327, 0.4260, 4.4637, 149.8791, 4216.4736, 7148.4175, 183.80, 0.41, 127.65, 3
1.515, -0.8238, 0.1177, 10.3951, -0.0041, 0.0878, -0.0096, -28.4545, -19.1818, -26.7347, 0.6486, 4.5307, 150.2236, 4216.4736, 7148.4175, 183.80, 0.41, 127.65, 3
1.537, -0.8630, 0.0392, 10.5127, -0.0031, 0.0907, -0.0105, -28.4545, -19.1818, -26.7347, 0.2138, 4.6928, 149.8051, 4216.4741, 7148.4170, 183.80, 0.41, 127.65, 3
1.556, -0.8630, 0.1177, 10.5127, -0.0041, 0.0867, -0.0127, -28.4545, -19.1818, -26.7347, 0.6462, 4.7277, 150.3456, 4216.4741, 7148.4170, 183.80, 0.41, 127.65, 3
1.576, -0.8630, 0.0785, 10.5127, -0.0053, 0.0915, -0.0095, -28.0909, -19.0909, -26.7347, 0.4228, 4.6410, 149.8656, 4216.4741, 7148.4170, 183.80, 0.41, 127.65, 3
1.604, -0.8630, 0.1177, 10.4735, -0.0040, 0.0913, -0.0115, -28.0909, -19.0909, -26.7347, 0.6437, 4.7101, 150.1784, 4216.4741, 7148.4170, 183.80, 0.31, 96.17, 3
1.624, -0.8238, 0.0392, 10.4735, -0.0038, 0.0867, -0.0110, -28.0909, -19.0909, -26.7347, 0.2146, 4.4971, 149.5197, 4216.4741, 7148.4170, 183.80, 0.31, 96.17, 3
1.644, -0.7845, 0.0000, 10.3558, -0.0038, 0.0901, -0.0096, -28.3636, -19.0000, -26.7347, 0.0000, 4.3323, 149.4841, 4216.4741, 7148.4170, 183.80, 0.31, 96.17, 3
1.670, -0.8238, 0.1177, 10.4735, -0.0027, 0.0895, -0.0148, -28.3636, -19.0000, -26.7347, 0.8681, 5.1938, 151.0761, 4216.4741, 7148.4170, 183.80, 0.31, 96.17, 3
1.691, -0.8630, 0.1177, 10.5520, -0.0024, 0.0889, -0.0119, -28.3636, -19.0000, -26.7347, 0.4276, 4.2678, 149.9579, 4216.4746, 7148.4170, 183.80, 0.31, 96.17, 3
1.711, -0.7845, 0.1177, 10.5520, -0.0020, 0.0832, -0.0084, -28.2727, -18.8182, -26.3265, 0.2130, 4.6755, 150.0803, 4216.4746, 7148.4170, 183.80, 0.31, 96.17, 3
1.739, -0.8238, 0.0000, 10.5127, -0.0035, 0.0881, -0.0090, -28.2727, -18.8182, -26.3265, 0.6486, 4.7454, 150.6450, 4216.4746, 7148.4170, 183.80, 0.31, 96.17, 3
1.761, -0.9022, 0.0785, 10.6696, -0.0049, 0.0883, -0.0122, -28.2727, -18.8182, -26.3265, 0.2154, 3.8712, 149.5601, 4216.4746, 7148.4170, 183.80, 0.28, 70.29, 3
1.780, -0.8238, 0.0785, 10.5520, -0.0037, 0.0895, -0.0151, -28.5455, -18.7273, -26.5306, 0.6390, 4.6752, 150.9456, 4216.4746, 7148.4170, 183.80, 0.28, 70.29, 3
1.807, -0.8630, 0.0392, 10.4735, -0.0027, 0.0841, -0.0118, -28.5455, -18.7273, -26.5306, 0.4244, 4.6581, 150.6761, 4216.4746, 7148.4170, 183.80, 0.28, 70.29, 3
1.826, -0.7453, 0.1177, 10.5520, -0.0044, 0.0845, -0.0064, -28.5455, -18.7273, -26.5306, 0.6486, 4.3158, 150.7328, 4216.4746, 7148.4170, 183.80, 0.28, 70.29, 3
1.846, -0.8238, 0.0392, 10.4343, -0.0034, 0.0890, -0.0101, -28.4545, -18.8182, -26.4286, 0.2162, 4.7457, 150.2795, 4216.4746, 7148.4170, 183.80, 0.28, 70.29, 3
1.872, -0.7845, 0.0785, 10.4735, -0.0035, 0.0886, -0.0108, -28.4545, -18.8182, -26.4286, 0.4292, 4.2837, 150.2413, 4216.4746, 7148.4170, 183.80, 0.28, 70.29, 3
1.892, -0.9022, 0.1177, 10.3558, -0.0008, 0.0852, -0.0128, -28.4545, -18.8182, -26.4286, 0.6511, 4.9788, 150.9419, 4216.4746, 7148.4170, 183.80, 0.28, 70.29, 3
1.912, -0.8630, 0.0785, 10.4343, -0.0046, 0.0851, -0.0087, -28.4545, -18.8182, -26.4286, 0.4308, 4.7279, 150.5386, 4216.4746, 7148.4170, 183.80, 0.28, 70.29, 3
1.938, -0.8238, 0.1177, 10.5127, -0.0026, 0.0895, -0.0119, -28.0909, -18.6364, -26.7347, 0.0000, 4.7457, 150.0274, 4216.4746, 7148.4170, 183.80, 0.28, 70.29, 3
1.957, -0.8630, 0.0785, 10.4735, -0.0024, 0.0858, -0.0124, -28.0909, -18.6364, -26.7347, 0.2122, 4.0253, 149.8101, 4216.4746, 7148.4170, 183.80, 0.28, 70.29, 3
1.978, -0.7845, 0.0785, 10.4735, -0.0020, 0.0863, -0.0130, -28.0909, -18.6364, -26.7347, 0.4213, 3.9957, 150.0488, 4216.4746, 7148.4170, 183.80, 0.28, 70.29, 3
1.997, -0.8238, 0.0392, 10.5127, -0.0047, 0.0872, -0.0098, -28.2727, -18.8182, -27.0408, 0.6462, 4.7277, 150.7411, 4216.4746, 7148.4170, 183.80, 0.28, 70.29, 3
2.023, -0.7845, 0.1177, 10.4735, -0.0047, 0.0880, -0.0119, -28.2727, -18.8182, -27.0408, 0.6437, 4.2835, 150.4516, 4216.4746, 7148.4170, 183.80, 0.28, 70.29, 3
2.043, -0.7453, 0.0785, 10.4735, -0.0035, 0.0895, -0.0111, -28.2727, -18.8182, -27.0408, 0.4292, 4.0703, 150.0432, 4216.4746, 7148.4170, 183.80, 0.28, 70.29, 3
2.063, -0.8238, 0.0785, 10.4343, -0.0041, 0.0874, -0.0137, -28.1818, -19.0000, -26.7347, 0.4308, 4.5139, 149.9832, 4216.4746, 7148.4170, 183.80, 0.28, 70.29, 3
2.089, -0.8238, 0.1177, 10.5912, -0.0020, 0.0904, -0.0128, -28.1818, -19.0000, -26.7347, 0.4260, 4.6754, 150.0818, 4216.4746, 7148.4170, 183.80, 0.28, 70.29, 3
2.109, -0.8238, 0.0785, 10.4343, -0.0047, 0.0863, -0.0092, -28.1818, -19.0000, -26.7347, 0.2154, 4.0856, 149.4378, 4216.4746, 7148.4170, 183.80, 0.28, 70.29, 3
2.129, -0.8238, 0.0785, 10.3558, -0.0035, 0.0867, -0.0102, -27.9091, -19.0000, -27.1429, 0.2114, 4.2208, 149.3615, 4216.4746, 7148.4170, 183.80, 0.28, 70.29, 3
2.155, -0.8630, 0.0785, 10.5127, -0.0031, 0.0874, -0.0125, -27.9091, -19.0000, -27.1429, 0.4276, 4.6927, 149.9462, 4216.4746, 7148.4170, 183.80, 0.28, 70.29, 3
2.174, -0.8238, 0.0392, 10.5520, -0.0027, 0.0861, -0.0115, -27.9091, -19.0000, -27.1429, 0.2130, 4.4638, 149.5289, 4216.4746, 7148.4170, 183.80, 0.28, 70.29, 3
2.195, -0.8238, 0.0392, 10.5127, -0.0041, 0.0866, -0.0108, -28.2727, -19.0909, -26.8367, 0.2138, 4.4804, 149.6614, 4216.4746, 7148.4170, 183.80, 0.28, 70.29, 3
2.221, -0.6669, 0.1569, 10.5520, -0.0034, 0.0907, -0.0137, -28.2727, -19.0909, -26.8367, 0.8519, 4.0398, 150.1531, 4216.4746, 7148.4170, 183.80, 0.28, 70.29, 3
2.241, -0.6669, 0.0392, 10.3558, -0.0023, 0.0845, -0.0121, -28.2727, -19.0909, -26.8367, 0.2170, 4.3323, 149.5675, 4216.4746, 7148.4170, 183.80, 0.28, 70.29, 3
2.260, -0.8238, 0.1177, 10.4735, -0.0046, 0.0889, -0.0157, -28.4545, -19.1818, -26.8367, 0.6437, 4.4969, 150.2113, 4216.4746, 7148.4170, 183.80, 0.28, 70.29, 3
2.289, -0.7453, 0.1177, 10.5127, -0.0037, 0.0867, -0.0128, -28.4545, -19.1818, -26.8367, 0.2138, 4.2679, 149.5411, 4216.4746, 7148.4170, 183.80, 0.28, 70.29, 3
2.309, -0.9022, 0.0785, 10.5520, -0.0029, 0.0858, -0.0102, -28.4545, -19.1818, -26.8367, 0.6390, 4.0400, 149.9077, 4216.4746, 7148.4170, 183.80, 0.28, 70.29, 3
2.329, -0.8238, 0.0785, 10.4735, -0.0038, 0.0884, -0.0110, -28.1818, -19.0909, -26.6327, 0.4292, 4.0703, 149.5535, 4216.4746, 7148.4170, 183.80, 0.28, 70.29, 3
2.355, -0.8630, 0.0785, 10.5912, -0.0034, 0.0852, -0.0098, -28.1818, -19.0909, -26.6327, 0.4244, 4.6581, 149.9333, 4216.4746, 7148.4170, 183.80, 0.28, 70.29, 3
2.375, -0.8238, 0.0785, 10.4735, -0.0038, 0.0887, -0.0078, -28.1818, -19.0909, -26.6327, 0.4292, 4.4970, 149.8348, 4216.4746, 7148.4170, 183.80, 0.28, 70.29, 3
2.395, -0.8630, 0.0392, 10.4735, -0.0037, 0.0858, -0.0108, -28.1818, -19.0000, -26.5306, 0.2130, 4.6755, 149.7973, 4216.4746, 7148.4170, 183.80, 0.28, 70.29, 3
2.415, -0.7453, 0.0392, 10.4735, -0.0023, 0.0840, -0.0108, -28.1818, -19.0000, -26.5306, 0.2162, 4.1010, 149.4241, 4216.4746, 7148.4170, 183.80, 0.28, 70.29, 3
2.441, -0.8238, 0.1569, 10.4735, -0.0023, 0.0863, -0.0104, -28.1818, -19.0000, -26.5306, 0.8583, 4.4966, 150.4628, 4216.4746, 7148.4170, 183.80, 0.28, 70.29, 3
2.460, -0.8630, 0.1569, 10.4735, -0.0040, 0.0872, -0.0096, 0.0000, 0.0000, 0.0000, 0.8583, 4.7098, 150.7125, 4216.4746, 7148.4170, 183.80, 0.28, 70.29, 3
2.479, -0.7845, 0.0392, 10.5520, -0.0041, 0.0861, -0.0090, -28.4545, -19.0909, -26.7347, 0.4324, 4.7456, 150.2197, 4216.4746, 7148.4170, 183.80, 0.28, 70.29, 3
2.505, -0.8238, 0.0785, 10.4735, -0.0038, 0.0892, -0.0121, -28.4545, -19.0909, -26.7347, 0.6486, 4.5307, 150.3444, 4216.4746, 7148.4170, 183.80, 0.28, 70.29, 3
2.525, -0.8630, 0.0785, 10.5520, -0.0035, 0.0843, -0.0078, -28.4545, -19.0909, -26.7347, 0.6462, 4.2996, 150.4364, 4216.4746, 7148.4170, 183.80, 0.28, 70.29, 3
2.545, -0.7845, 0.0392, 10.5127, -0.0021, 0.0886, -0.0118, -28.4545, -18.9091, -26.7347, 0.4292, 4.7102, 150.4341, 4216.4746, 7148.4170, 183.80, 0.28, 70.29, 3
2.571, -0.8238, 0.0392, 10.3951, -0.0040, 0.0903, -0.0115, -28.4545, -18.9091, -26.7347, 0.2162, 4.5309, 150.0631, 4216.4746, 7148.4170, 183.80, 0.28, 70.29, 3
2.591, -0.7845, 0.0392, 10.4735, -0.0041, 0.0866, -0.0107, -28.4545, -18.9091, -26.7347, 0.2146, 4.2838, 149.9006, 4216.4746, 7148.4170, 183.80, 0.28, 70.29, 3
2.611, -0.8238, 0.0392, 10.5520, -0.0031, 0.0880, -0.0156, -28.1818, -18.7273, -26.6327, 0.2130, 4.4638, 150.0367, 4216.4746, 7148.4170, 183.80, 0.28, 70.29, 3
2.636, -0.7453, 0.0392, 10.5127, -0.0012, 0.0854, -0.0101, -28.1818, -18.7273, -26.6327, 0.6390, 4.0400, 150.2814, 4216.4746, 7148.4170, 183.80, 0.28, 70.29, 3
2.657, -0.8630, 0.1569, 10.5520, -0.0026, 0.0866, -0.0107, -28.1818, -18.7273, -26.6327, 0.2114, 4.6411, 150.1495, 4216.4746, 7148.4170, 183.80, 0.28, 70.29, 3
2.676, -0.8238, 0.0785, 10.4343, -0.0027, 0.0874, -0.0142, -28.2727, -18.8182, -26.7347, 0.6437, 4.4969, 150.5447, 4216.4746, 7148.4170, 183.80, 0.28, 70.29, 3
2.703, -0.8630, 0.1177, 10.5912, -0.0046, 0.0870, -0.0122, -28.2727, -18.8182, -26.7347, 0.6366, 4.6580, 150.6383, 4216.4746, 7148.4170, 183.80, 0.28, 70.29, 3
2.722, -0.8630, 0.1177, 10.5127, -0.0044, 0.0887, -0.0125, -28.2727, -18.8182, -26.7347, 0.6413, 4.6926, 150.6660, 4216.4746, 7148.4170, 183.80, 0.28, 70.29, 3
2.743, -0.8630, 0.0785, 10.5912, -0.0027, 0.0869, -0.0093, -28.1818, -19.0000, -26.7347, 0.4244, 4.6581, 150.0688, 4216.4746, 7148.4170, 183.80, 0.28, 70.29, 3
2.762, -0.9022, 0.0392, 10.4343, -0.0050, 0.0874, -0.0087, -28.1818, -19.0000, -26.7347, 0.2154, 4.9418, 149.9992, 4216.4746, 7148.4170, 183.80, 0.28, 70.29, 3
2.789, -0.7845, 0.0392, 10.4735, -0.0037, 0.0869, -0.0108, -28.1818, -19.0000, -26.7347, 0.4276, 4.0551, 149.6766, 4216.4746, 7148.4170, 183.80, 0.28, 70.29, 3
2.808, -0.9022, 0.0785, 10.4735, -0.0037, 0.0899, -0.0098, -28.2727, -18.9091, -27.0408, 0.2106, 4.4148, 149.8816, 4216.4746, 7148.4170, 183.80, 0.28, 70.29, 3
2.829, -0.8238, 0.1177, 10.5912, -0.0043, 0.0892, -0.0110, -28.2727, -18.9091, -27.0408, 0.4182, 4.3826, 150.1151, 4216.4746, 7148.4170, 183.80, 0.28, 70.29, 3
2.857, -0.8238, 0.0785, 10.4735, -0.0031, 0.0875, -0.0131, -28.2727, -18.9091, -27.0408, 0.2179, 4.7816, 150.1303, 4216.4746, 7148.4170, 183.80, 0.28, 70.29, 3
2.877, -0.8238, 0.0392, 10.5127, -0.0031, 0.0826, -0.0116, -28.4545, -18.9091, -26.7347, 0.4374, 4.1477, 150.0822, 4216.4746, 7148.4170, 183.80, 0.28, 70.29, 3
2.897, -0.7845, 0.0785, 10.4735, -0.0032, 0.0849, -0.0096, -28.4545, -18.9091, -26.7347, 0.6437, 4.4969, 150.5594, 4216.4746, 7148.4170, 183.80, 0.28, 70.29, 3
2.941, -0.9022, 0.0785, 10.5127, -0.0032, 0.0898, -0.0107, -28.3636, -18.9091, -26.7347, 0.4276, 4.9050, 150.4869, 4216.4746, 7148.4170, 183.80, 0.28, 70.29, 3
2.962, -0.8238, 0.0392, 10.4735, -0.0035, 0.0866, -0.0082, -28.3636, -18.9091, -26.7347, 0.2146, 4.4971, 149.9702, 4216.4746, 7148.4170, 183.80, 0.28, 70.29, 3
2.981, -0.8630, 0.1569, 10.5127, -0.0050, 0.0895, -0.0128, -28.3636, -18.9091, -26.7347, 0.8551, 4.6923, 150.8734, 4216.4746, 7148.4170, 183.80, 0.28, 70.29, 3
3.008, -0.8630, 0.0785, 10.4735, -0.0040, 0.0890, -0.0073, -28.4545, -18.8182, -26.8367, 0.4152, 4.1445, 150.1880, 4216.4746, 7148.4170, 183.80, 0.28, 70.29, 3
3.027, -0.8238, 0.0785, 10.3558, -0.0031, 0.0852, -0.0102, -28.4545, -18.8182, -26.8367, 0.6390, 4.4636, 150.6691, 4216.4746, 7148.4170, 183.80, 0.28, 70.29, 3
3.048, -0.7453, 0.0392, 10.4735, -0.0024, 0.0860, -0.0119, -28.4545, -18.8182, -26.8367, 0.4228, 4.2207, 150.2472, 4216.4746, 7148.4170, 183.80, 0.28, 70.29, 3
3.074, -0.8238, 0.0785, 10.5520, -0.0017, 0.0849, -0.0136, -28.4545, -18.8182, -26.8367, -0.2114, 3.8000, 149.1605, 4216.4746, 7148.4170, 183.80, 0.28, 70.29, 3
3.094, -0.7845, 0.0785, 10.4343, -0.0038, 0.0858, -0.0086, -28.9091, -19.0909, -26.5306, 0.4260, 4.2520, 150.2118, 4216.4746, 7148.4170, 183.80, 0.28, 70.29, 3
3.113, -0.8630, 0.0392, 10.4343, -0.0027, 0.0852, -0.0136, -28.9091, -19.0909, -26.5306, 0.4244, 4.6581, 150.4645, 4216.4746, 7148.4170, 183.80, 0.28, 70.29, 3
3.134, -0.8238, 0.1569, 10.4343, -0.0044, 0.0909, -0.0116, -28.9091, -19.0909, -26.5306, 0.4276, 4.6927, 150.4897, 4216.4746, 7148.4170, 183.80, 0.28, 70.29, 3
3.156, -0.8238, 0.0785, 10.3951, -0.0035, 0.0841, -0.0078, -28.4545, -18.9091, -26.5306, 0.0000, 4.7636, 149.9284, 4216.4746, 7148.4170, 183.80, 0.28, 70.29, 3
3.176, -0.8630, 0.1569, 10.4735, -0.0037, 0.0858, -0.0069, -28.4545, -18.9091, -26.5306, 0.4390, 4.3818, 150.2085, 4216.4746, 7148.4170, 183.80, 0.28, 70.29, 3
3.196, -0.8238, 0.0785, 10.4343, -0.0052, 0.0883, -0.0096, -28.4545, -18.9091, -26.5306, 0.2122, 4.4474, 149.9781, 4216.4746, 7148.4170, 183.80, 0.28, 70.29, 3
3.222, -0.8630, 0.1569, 10.5127, -0.0037, 0.0889, -0.0092, -28.4545, -19.0000, -26.7347, 0.8551, 4.6923, 150.8190, 4216.4746, 7148.4170, 183.80, 0.28, 70.29, 3
3.241, -0.8238, 0.0785, 10.5127, -0.0040, 0.0887, -0.0110, -28.4545, -19.0000, -26.7347, 0.4276, 4.4803, 150.1650, 4216.4746, 7148.4170, 183.80, 0.28, 70.29, 3
3.262, -0.8630, 0.0785, 10.3951, -0.0037, 0.0831, -0.0092, -28.4545, -19.0000, -26.7347, 0.4324, 4.7456, 150.3399, 4216.4746, 7148.4170, 183.80, 0.28, 70.29, 3
3.288, -0.8630, 0.0785, 10.3951, -0.0031, 0.0892, -0.0140, -28.3636, -19.0909, -26.9388, 0.2162, 4.9604, 150.0579, 4216.4746, 7148.4170, 183.80, 0.28, 70.29, 3
3.308, -0.7845, 0.1177, 10.6696, -0.0024, 0.0852, -0.0121, -28.3636, -19.0909, -26.9388, 0.6296, 4.3984, 150.1976, 4216.4746, 7148.4170, 183.80, 0.28, 70.29, 3
3.328, -0.9022, 0.0392, 10.3951, -0.0043, 0.0875, -0.0086, -28.3636, -19.0909, -26.9388, 0.6486, 4.7454, 150.4438, 4216.4746, 7148.4170, 183.80, 0.28, 70.29, 3
3.354, -0.7845, 0.0392, 10.5520, -0.0026, 0.0854, -0.0139, -28.3636, -19.0000, -26.9388, 0.0000, 4.2521, 149.4544, 4216.4746, 7148.4170, 183.80, 0.28, 70.29, 3
3.374, -0.7845, 0.0392, 10.5127, -0.0018, 0.0881, -0.0148, -28.3636, -19.0000, -26.9388, 0.6535, 4.9976, 150.7291, 4216.4746, 7148.4170, 183.80, 0.28, 70.29, 3
3.394, -0.7845, 0.1177, 10.4343, -0.0032, 0.0872, -0.0131, -28.3636, -19.0000, -26.9388, 0.2099, 3.7723, 149.3849, 4216.4746, 7148.4170, 183.80, 0.28, 70.29, 3
3.423, -0.7845, 0.0392, 10.5127, -0.0041, 0.0866, -0.0127, -28.3636, -19.0909, -26.9388, 0.2146, 4.2838, 149.6154, 4216.4746, 7148.4170, 183.80, 0.28, 70.29, 3
3.442, -0.9022, 0.0392, 10.4735, -0.0035, 0.0877, -0.0136, -28.3636, -19.0909, -26.9388, 0.2187, 5.0169, 150.0968, 4216.4746, 7148.4170, 183.80, 0.28, 70.29, 3
3.464, -0.8238, 0.0785, 10.4735, -0.0031, 0.0870, -0.0137, -28.3636, -19.0909, -26.9388, 0.4228, 4.2207, 149.8274, 4216.4751, 7148.4170, 183.80, 0.28, 70.29, 3
3.507, -0.8238, 0.0000, 10.4735, -0.0037, 0.0843, -0.0121, -28.2727, -19.0909, -26.9388, 0.6413, 4.6926, 150.3331, 4216.4751, 7148.4170, 183.80, 0.28, 70.29, 3
3.578, -0.8238, 0.0785, 10.4735, -0.0037, 0.0887, -0.0107, -28.5455, -19.3636, -26.9388, 0.4292, 4.4970, 149.7950, 4216.4751, 7148.4170, 183.80, 0.20, 74.76, 3
3.598, -0.8238, 0.0785, 10.4343, -0.0053, 0.0889, -0.0108, -28.5455, -19.3636, -26.9388, 0.4308, 4.5139, 149.8078, 4216.4751, 7148.4170, 183.80, 0.20, 74.76, 3
3.618, -0.8238, 0.0000, 10.4343, -0.0024, 0.0925, -0.0113, -28.5455, -19.3636, -26.9388, 0.0000, 4.5140, 149.7930, 4216.4751, 7148.4170, 183.80, 0.20, 74.76, 3
3.643, -0.7453, 0.0785, 10.4343, -0.0034, 0.0886, -0.0133, -28.4545, -18.9091, -26.7347, 0.4260, 4.6754, 150.4082, 4216.4751, 7148.4170, 183.80, 0.20, 74.76, 3
3.663, -0.8630, 0.0392, 10.4343, -0.0049, 0.0875, -0.0104, -28.4545, -18.9091, -26.7347, 0.2130, 4.4638, 150.0159, 4216.4751, 7148.4170, 183.80, 0.20, 74.76, 3
3.683, -0.9022, 0.0392, 10.3951, -0.0026, 0.0864, -0.0099, -28.4545, -18.9091, -26.7347, 0.2162, 4.9604, 150.3361, 4216.4751, 7148.4170, 183.80, 0.20, 74.76, 3
3.708, -0.7845, 0.0000, 10.4735, -0.0050, 0.0867, -0.0113, -28.4545, -19.0000, -26.8367, 0.0000, 4.2838, 149.5340, 4216.4751, 7148.4170, 183.80, 0.20, 74.76, 3
3.728, -0.8630, 0.0785, 10.5127, -0.0043, 0.0889, -0.0093, -28.4545, -19.0000, -26.8367, 0.4276, 4.6927, 150.3152, 4216.4751, 7148.4170, 183.80, 0.20, 74.76, 3
3.748, -0.7845, 0.0392, 10.5520, -0.0041, 0.0880, -0.0104, -28.4545, -19.0000, -26.8367, 0.2130, 4.2521, 149.7700, 4216.4751, 7148.4170, 183.80, 0.20, 74.76, 3
3.774, -0.8238, 0.0785, 10.4343, -0.0038, 0.0863, -0.0101, -28.2727, -19.0909, -26.7347, 0.6390, 4.8867, 150.4216, 4216.4751, 7148.4170, 183.80, 0.20, 74.76, 3
3.793, -0.8238, 0.1177, 10.4735, -0.0023, 0.0887, -0.0105, -28.2727, -19.0909, -26.7347, 0.4228, 4.4309, 149.8681, 4216.4751, 7148.4170, 183.80, 0.20, 74.76, 3
3.814, -0.8630, 0.0785, 10.5127, -0.0034, 0.0878, -0.0093, -28.2727, -19.0909, -26.7347, 0.6390, 4.6752, 150.2878, 4216.4751, 7148.4170, 183.80, 0.20, 74.76, 3
3.840, -0.8630, 0.0785, 10.4343, -0.0040, 0.0857, -0.0116, -28.2727, -19.0000, -26.7347, 0.4308, 4.7279, 150.1901, 4216.4751, 7148.4170, 183.80, 0.20, 74.76, 3
3.859, -0.8630, 0.0392, 10.4735, -0.0037, 0.0913, -0.0133, -28.2727, -19.0000, -26.7347, 0.2146, 4.7103, 149.9187, 4216.4751, 7148.4170, 183.80, 0.20, 74.76, 3
3.879, -0.9022, 0.1569, 10.3951, -0.0041, 0.0884, -0.0128, -28.2727, -19.0000, -26.7347, 0.8648, 4.9598, 150.8624, 4216.4751, 7148.4170, 183.80, 0.20, 74.76, 3
3.905, -0.8630, 0.1177, 10.3558, -0.0044, 0.0883, -0.0092, -28.7273, -18.7273, -26.5306, 0.4228, 4.8510, 150.9272, 4216.4751, 7148.4170, 183.80, 0.20, 74.76, 3
3.924, -0.7061, 0.1177, 10.4735, -0.0052, 0.0880, -0.0140, -28.7273, -18.7273, -26.5306, 0.4308, 4.2997, 150.5944, 4216.4751, 7148.4170, 183.80, 0.20, 74.76, 3
3.945, -0.9414, 0.1569, 10.5127, -0.0060, 0.0870, -0.0131, -28.7273, -18.7273, -26.5306, 0.4276, 4.2678, 150.5702, 4216.4751, 7148.4170, 183.80, 0.20, 74.76, 3
3.971, -0.9022, 0.0392, 10.5520, -0.0079, 0.0880, -0.0090, -28.4545, -18.9091, -26.4286, 0.2130, 4.8870, 150.2440, 4216.4751, 7148.4170, 183.80, 0.20, 74.76, 3
3.991, -0.8630, 0.0000, 10.4343, -0.0046, 0.0880, -0.0105, -28.4545, -18.9091, -26.4286, 0.0000, 4.7280, 149.8929, 4216.4751, 7148.4170, 183.80, 0.20, 74.76, 3
4.011, -0.8238, 0.1177, 10.3951, 0.0018, 0.0919, -0.0165, -28.4545, -18.9091, -26.4286, 0.6486, 4.5307, 150.5411, 4216.4751, 7148.4170, 183.80, 0.20, 74.76, 3
4.030, -0.8238, 0.0785, 10.5127, -0.0006, 0.1016, -0.0223, -28.4545, -18.9091, -26.4286, 0.4276, 4.4803, 150.4459, 4216.4751, 7148.4170, 183.80, 0.20, 74.76, 3
4.058, -0.8238, 0.0392, 10.4735, 0.0076, 0.1022, -0.0231, -28.3636, -18.7273, -26.6327, 0.2146, 4.4971, 150.1987, 4216.4751, 7148.4170, 183.80, 0.20, 74.76, 3
4.078, -0.9807, 0.0785, 10.4343, 0.0041, 0.0907, -0.0125, -28.3636, -18.7273, -26.6327, 0.4308, 5.3690, 151.0014, 4216.4751, 7148.4170, 183.80, 0.20, 74.76, 3
4.098, -0.9414, 0.0392, 10.5520, -0.0041, 0.0875, -0.0147, -28.3636, -18.7273, -26.6327, 0.2130, 5.0984, 150.4033, 4216.4751, 7148.4170, 183.80, 0.20, 74.76, 3
4.123, -0.8630, 0.0392, 10.5127, -0.0073, 0.0884, -0.0084, -28.2727, -18.8182, -26.7347, -1.0728, 3.0010, 147.4325, 4216.4751, 7148.4170, 183.80, 0.20, 74.76, 3
4.144, -0.7061, 0.0785, 10.7481, -0.0057, 0.0916, -0.0151, -28.2727, -18.8182, -26.7347, 1.5422, 5.0535, 151.9999, 4216.4751, 7148.4170, 183.80, 0.20, 74.76, 3
4.163, -0.8238, -0.1177, 10.6696, 0.0005, 0.0919, -0.0214, -28.2727, -18.8182, -26.7347, 0.6366, 5.0793, 150.9013, 4216.4751, 7148.4170, 183.80, 0.20, 74.76, 3
4.190, -0.7453, 0.0785, 10.1989, -0.0067, 0.0884, -0.0131, -28.1818, -18.8182, -26.8367, 0.4407, 4.1794, 150.0333, 4216.4751, 7148.4170, 183.80, 0.20, 74.76, 3
4.209, -0.7061, 0.1569, 10.3166, 0.0018, 0.0933, -0.0202, -28.1818, -18.8182, -26.8367, 0.8714, 3.9148, 150.3948, 4216.4751, 7148.4170, 183.80, 0.20, 74.76, 3
4.229, -0.8630, 0.3138, 10.5127, -0.0241, 0.0964, -0.0370, -28.1818, -18.8182, -26.8367, 1.7098, 4.6908, 151.9490, 4216.4751, 7148.4170, 183.80, 0.20, 74.76, 3
4.255, -1.0199, 0.0785, 10.4735, -0.0070, 0.1113, -0.0290, -28.3636, -19.0000, -26.8367, 0.2138, 4.6928, 149.9891, 4216.4751, 7148.4170, 183.80, 0.20, 74.76, 3
4.275, -0.7845, 0.0392, 10.4735, -0.0082, 0.0811, -0.0082, -28.3636, -19.0000, -26.8367, 0.4308, 4.2997, 149.9965, 4216.4751, 7148.4170, 183.80, 0.20, 74.76, 3
4.295, -0.9022, 0.1569, 10.4735, -0.0040, 0.0698, -0.0079, -28.3636, -19.0000, -26.8367, 0.2154, 5.1555, 150.2849, 4216.4751, 7148.4170, 183.80, 0.20, 74.76, 3
4.321, -0.6669, 0.0392, 10.5520, -0.0142, 0.0400, 0.0124, -28.4545, -19.0909, -26.9388, 0.6486, 3.6703, 149.8078, 4216.4751, 7148.4170, 183.80, 0.20, 74.76, 3
4.340, -0.9414, 0.1569, 10.3951, 0.0024, 0.0724, -0.0049, -28.4545, -19.0909, -26.9388, 0.0000, 5.0058, 149.8974, 4216.4751, 7148.4170, 183.80, 0.20, 74.76, 3
4.360, -0.6669, -0.0785, 10.3951, -0.0067, 0.0368, 0.0278, -28.4545, -19.0909, -26.9388, -0.4324, 3.6704, 148.4860, 4216.4751, 7148.4170, 183.80, 0.20, 74.76, 3
4.380, -0.7453, 0.0785, 10.4735, -0.0021, 0.0579, 0.0104, -28.5455, -19.0000, -26.4286, 0.4292, 4.0703, 149.9301, 4216.4751, 7148.4170, 183.80, 0.20, 74.76, 3
4.406, -0.7061, 0.0392, 10.5127, -0.0024, 0.0858, -0.0113, -28.5455, -19.0000, -26.4286, 0.2138, 3.8424, 149.5211, 4216.4751, 7148.4170, 183.80, 0.20, 74.76, 3
4.426, -0.8238, 0.0785, 10.5127, -0.0040, 0.0906, -0.0119, -28.5455, -19.0000, -26.4286, 0.4276, 4.4803, 150.1913, 4216.4751, 7148.4170, 183.80, 0.20, 74.76, 3
4.446, -0.9414, 0.1177, 10.5520, -0.0043, 0.0837, -0.0076, -28.2727, -19.0909, -26.7347, 0.6390, 5.0981, 150.5535, 4216.4751, 7148.4170, 183.80, 0.20, 74.76, 3
4.473, -0.8630, 0.0392, 10.5127, -0.0044, 0.0880, -0.0127, -28.2727, -19.0909, -26.7347, 0.0000, 4.9791, 149.7165, 4216.4756, 7148.4175, 183.80, 0.20, 74.76, 3
4.493, -0.7845, 0.1177, 10.5127, -0.0058, 0.0883, -0.0124, -28.2727, -19.0909, -26.7347, 0.2130, 4.6755, 149.7742, 4216.4756, 7148.4175, 183.80, 0.20, 74.76, 3
4.513, -0.8238, 0.0785, 10.5127, -0.0029, 0.0907, -0.0136, -28.3636, -19.0000, -26.6327, 0.2138, 4.6928, 149.9617, 4216.4756, 7148.4175, 183.80, 0.20, 74.76, 3
4.540, -0.8238, 0.0392, 10.5520, -0.0044, 0.0890, -0.0124, -28.3636, -19.0000, -26.6327, 0.4260, 4.4637, 150.0693, 4216.4756, 7148.4175, 183.80, 0.14, 331.93, 3
4.560, -0.7453, 0.0392, 10.4343, -0.0035, 0.0858, -0.0101, -28.3636, -19.0000, -26.6327, 0.2130, 4.0402, 149.5341, 4216.4756, 7148.4175, 183.80, 0.14, 331.93, 3
4.580, -0.7845, 0.1177, 10.4343, -0.0049, 0.0845, -0.0101, -28.6364, -18.7273, -26.6327, 0.6511, 4.3320, 150.8287, 4216.4756, 7148.4175, 183.80, 0.14, 331.93, 3
4.609, -0.7845, 0.0785, 10.3166, -0.0043, 0.0877, -0.0127, -28.6364, -18.7273, -26.6327, 0.4357, 4.3486, 150.5768, 4216.4756, 7148.4175, 183.80, 0.14, 331.93, 3
4.628, -0.8238, 0.0392, 10.5127, -0.0024, 0.0869, -0.0121, -28.6364, -18.7273, -26.6327, 0.2138, 4.4804, 150.3927, 4216.4756, 7148.4175, 183.80, 0.14, 331.93, 3
4.648, -0.7845, 0.1569, 10.3951, -0.0024, 0.0864, -0.0119, -28.4545, -18.9091, -26.6327, 0.8648, 4.3155, 150.6998, 4216.4756, 7148.4175, 183.80, 0.14, 331.93, 3
4.674, -0.9022, 0.0392, 10.4735, -0.0014, 0.0861, -0.0139, -28.4545, -18.9091, -26.6327, 1.0688, 4.4797, 151.0544, 4216.4756, 7148.4175, 183.80, 0.14, 331.93, 3
4.694, -0.9022, 0.0785, 10.5520, -0.0035, 0.0864, -0.0081, -28.4545, -18.9091, -26.6327, 1.0728, 4.4964, 151.0697, 4216.4756, 7148.4175, 183.80, 0.14, 331.93, 3
4.714, -0.9022, 0.1569, 10.4343, -0.0050, 0.0872, -0.0086, -28.3636, -19.0000, -26.8367, 0.8648, 4.5304, 150.6778, 4216.4756, 7148.4175, 183.80, 0.14, 331.93, 3
4.740, -0.9414, 0.0785, 10.5520, -0.0050, 0.0887, -0.0101, -28.3636, -19.0000, -26.8367, 0.4228, 4.6410, 150.2081, 4216.4756, 7148.4175, 183.80, 0.14, 331.93, 3
4.760, -0.9414, 0.4707, 10.3558, -0.0037, 0.0869, -0.0116, -28.3636, -19.0000, -26.8367, 0.4407, 4.3986, 150.0732, 4216.4756, 7148.4175, 183.80, 0.14, 331.93, 3
4.780, -1.0591, 0.1177, 10.7481, -0.0073, 0.0843, -0.0073, -28.3636, -19.0000, -26.8367, -0.6767, 3.3794, 148.5314, 4216.4756, 7148.4175, 183.80, 0.14, 331.93, 3
4.800, -0.5492, -0.4315, 11.2973, -0.0273, 0.0536, 0.0168, -28.2727, -18.5455, -26.5306, 1.2730, 4.2354, 151.5008, 4216.4756, 7148.4175, 183.80, 0.14, 331.93, 3
4.826, -0.7453, 0.1177, 10.3166, -0.0154, 0.0895, -0.0151, -28.2727, -18.5455, -26.5306, 0.6535, 4.1318, 150.6618, 4216.4756, 7148.4175, 183.80, 0.14, 331.93, 3
4.846, -0.9022, 0.0785, 10.4343, 0.0078, 0.1121, -0.0281, -28.2727, -18.5455, -26.5306, 0.4308, 4.9417, 150.9005, 4216.4756, 7148.4175, 183.80, 0.14, 331.93, 3
4.866, -0.8630, 0.1569, 10.3951, 0.0020, 0.0910, -0.0142, -28.1818, -18.8182, -27.0408, 0.8648, 4.7452, 150.9558, 4216.4756, 7148.4175, 183.80, 0.14, 331.93, 3
4.891, -0.8238, 0.0000, 10.4343, -0.0047, 0.0782, -0.0058, -28.1818, -18.8182, -27.0408, 0.2138, 4.2679, 149.8389, 4216.4756, 7148.4175, 183.80, 0.14, 331.93, 3
4.912, -0.7845, 0.0000, 10.3951, -0.0027, 0.0851, -0.0121, -28.1818, -18.8182, -27.0408, 0.6585, 4.1633, 150.3216, 4216.4756, 7148.4175, 183.80, 0.14, 331.93, 3
4.931, -0.7453, 0.0392, 10.5912, -0.0005, 0.1080, -0.0267, -28.0909, -18.6364, -26.8367, -0.4213, 4.6240, 149.4541, 4216.4756, 7148.4175, 183.80, 0.14, 331.93, 3
4.958, -0.9414, 0.0392, 10.3951, -0.0066, 0.0976, -0.0260, -28.0909, -18.6364, -26.8367, 0.2162, 5.1749, 150.5755, 4216.4756, 7148.4175, 183.80, 0.14, 331.93, 3
4.977, -0.8238, 0.0000, 10.4735, -0.0081, 0.0803, -0.0131, -28.0909, -18.6364, -26.8367, 0.0000, 4.4972, 149.8774, 4216.4756, 7148.4175, 183.80, 0.14, 331.93, 3
4.997, -0.7845, 0.0392, 10.4735, -0.0118, 0.0768, -0.0087, -28.5455, -18.8182, -26.9388, 0.2146, 4.2838, 150.1160, 4216.4756, 7148.4175, 183.80, 0.14, 331.93, 3
5.023, -0.7453, 0.0000, 10.4343, -0.0151, 0.0793, -0.0037, -28.5455, -18.8182, -26.9388, 0.0000, 4.7998, 150.1906, 4216.4756, 7148.4175, 183.80, 0.14, 331.93, 3
5.043, -0.7845, 0.0392, 10.4343, -0.0044, 0.0874, -0.0092, -28.5455, -18.8182, -26.9388, 0.6511, 4.5478, 150.8202, 4216.4756, 7148.4175, 183.80, 0.14, 331.93, 3
5.062, -0.7061, 0.0000, 10.3558, -0.0015, 0.0896, -0.0163, -28.5455, -19.0909, -26.8367, 0.2114, 4.4310, 149.8347, 4216.4756, 7148.4175, 183.80, 0.14, 331.93, 3
5.088, -1.0199, -0.0392, 10.5520, 0.0005, 0.0866, -0.0142, -28.5455, -19.0909, -26.8367, -0.2130, 5.5207, 150.0250, 4216.4756, 7148.4175, 183.80, 0.14, 331.93, 3
5.108, -0.7845, 0.0785, 10.2381, 0.0008, 0.0895, -0.0096, -28.5455, -19.0909, -26.8367, 0.4390, 4.3818, 150.0776, 4216.4756, 7148.4175, 183.80, 0.14, 331.93, 3
5.128, -0.7845, 0.1177, 10.5127, -0.0017, 0.0820, -0.0113, -28.3636, -18.9091, -27.0408, 0.6413, 4.2676, 150.3849, 4216.4756, 7148.4175, 183.80, 0.14, 331.93, 3
5.177, -0.8630, 0.0000, 10.4735, -0.0072, 0.0904, -0.0116, -28.3636, -18.9091, -27.0408, 0.0000, 4.7104, 149.8894, 4216.4756, 7148.4175, 183.80, 0.14, 331.93, 3
5.196, -0.8630, 0.0392, 10.6696, -0.0035, 0.0874, -0.0063, -28.4545, -19.0000, -26.7347, 0.2106, 4.6241, 149.9963, 4216.4756, 7148.4175, 183.80, 0.14, 331.93, 3
5.217, -0.7845, -0.0392, 10.6304, -0.0057, 0.0895, -0.0092, -28.4545, -19.0000, -26.7347, -0.2114, 4.2208, 149.2279, 4216.4756, 7148.4175, 183.80, 0.14, 331.93, 3
5.236, -0.7845, 0.0785, 10.4343, -0.0023, 0.0845, -0.0073, -28.4545, -19.0000, -26.7347, 0.4308, 4.2997, 150.0522, 4216.4756, 7148.4175, 183.80, 0.14, 331.93, 3
5.263, -0.7845, 0.1177, 10.3558, -0.0034, 0.0896, -0.0153, -28.4545, -18.8182, -26.6327, 0.0000, 3.7723, 149.4096, 4216.4756, 7148.4175, 183.80, 0.14, 331.93, 3
5.282, -0.7453, 0.1177, 10.5127, -0.0014, 0.0893, -0.0122, -28.4545, -18.8182, -26.6327, 0.4341, 4.7635, 150.5795, 4216.4756, 7148.4175, 183.80, 0.14, 331.93, 3
5.303, -0.8630, 0.1569, 10.5127, -0.0014, 0.0857, -0.0121, -28.4545, -18.8182, -26.6327, 0.2179, 4.7816, 150.3316, 4216.4756, 7148.4175, 183.80, 0.14, 331.93, 3
5.328, -0.9807, 0.0392, 10.4735, -0.0049, 0.0880, -0.0101, -28.4545, -18.7273, -26.6327, 0.2130, 4.4638, 150.1062, 4216.4756, 7148.4175, 183.80, 0.14, 331.93, 3
5.348, -0.8238, 0.0785, 10.5520, -0.0023, 0.0895, -0.0050, -28.2727, -18.7273, -26.6327, 0.6462, 2.7978, 149.5141, 4216.4756, 7148.4175, 183.80, 0.14, 331.93, 3
5.368, -0.7453, 0.0000, 10.6696, -0.0055, 0.0835, -0.0093, -28.2727, -18.7273, -26.6327, 0.6390, 4.0400, 150.3513, 4216.4756, 7148.4175, 183.80, 0.14, 331.93, 3
5.394, -0.7845, 0.1569, 10.5127, -0.0027, 0.0878, -0.0147, -28.2727, -18.7273, -26.6327, 0.8551, 4.2674, 150.7879, 4216.4756, 7148.4175, 183.80, 0.14, 331.93, 3
5.414, -0.8238, 0.0392, 10.7089, -0.0017, 0.0889, -0.0162, -28.3636, -18.7273, -26.3265, 0.2099, 4.3987, 150.0905, 4216.4756, 7148.4175, 183.80, 0.14, 331.93, 3
5.435, -0.8238, 0.0392, 10.4343, -0.0061, 0.0881, -0.0165, -28.3636, -18.7273, -26.3265, 0.2154, 4.5140, 150.1707, 4216.4756, 7148.4175, 183.80, 0.14, 331.93, 3
5.462, -0.9414, 0.0392, 10.4343, -0.0020, 0.0875, -0.0095, -28.3636, -18.7273, -26.3265, 0.4213, 5.0423, 150.9423, 4216.4756, 7148.4175, 183.80, 0.14, 331.93, 3
5.482, -0.7453, 0.1569, 10.4343, -0.0020, 0.0828, -0.0075, -28.3636, -18.6364, -26.8367, 0.2138, 4.2679, 150.1962, 4216.4756, 7148.4175, 183.80, 0.14, 331.93, 3
5.502, -0.7061, 0.0000, 10.4343, -0.0076, 0.0901, -0.0111, -28.3636, -18.6364, -26.8367, -0.2091, 3.9667, 149.4798, 4216.4756, 7148.4175, 183.80, 0.14, 331.93, 3
5.528, -0.7845, 0.1177, 10.5520, -0.0076, 0.0845, -0.0179, -28.3636, -18.6364, -26.8367, 0.8714, 4.3482, 151.0612, 4216.4756, 7148.4175, 183.80, 0.14, 331.93, 3
5.550, -0.9022, 0.0785, 10.5127, -0.0057, 0.0912, -0.0115, -28.0909, -19.0000, -26.8367, 0.0000, 4.3160, 149.2731, 4216.4756, 7148.4175, 183.80, 0.14, 339.27, 3
5.569, -0.8630, 0.0392, 10.3951, 0.0002, 0.0890, -0.0060, -28.0909, -19.0000, -26.8367, 0.0000, 4.5826, 149.4514, 4216.4756, 7148.4175, 183.80, 0.14, 339.27, 3
5.595, -0.8630, 0.1177, 10.4735, -0.0038, 0.0848, -0.0082, -28.0909, -19.0000, -26.8367, 0.6437, 4.7101, 150.3157, 4216.4756, 7148.4175, 183.80, 0.14, 339.27, 3
5.615, -0.7453, 0.0785, 10.3951, -0.0037, 0.0867, -0.0144, -28.1818, -18.8182, -27.0408, 0.4324, 4.1009, 149.9976, 4216.4756, 7148.4175, 183.80, 0.14, 339.27, 3
5.635, -0.7845, 0.0000, 10.5127, -0.0049, 0.0872, -0.0121, -28.1818, -18.8182, -27.0408, 0.0000, 4.2679, 149.5767, 4216.4756, 7148.4175, 183.80, 0.14, 339.27, 3
5.654, -0.8238, 0.1177, 10.4735, -0.0058, 0.0899, -0.0111, -28.1818, -18.8182, -27.0408, 0.6437, 4.4969, 150.5217, 4216.4756, 7148.4175, 183.80, 0.14, 339.27, 3
5.681, -0.9414, 0.0392, 10.4735, -0.0079, 0.0870, -0.0070, -28.3636, -18.8182, -27.0408, -0.2138, 4.9051, 149.8789, 4216.4756, 7148.4175, 183.80, 0.14, 339.27, 3
5.700, -0.8238, -0.0785, 10.5912, -0.0050, 0.0883, -0.0047, -28.3636, -18.8182, -27.0408, 0.6319, 4.4145, 150.5907, 4216.4756, 7148.4175, 183.80, 0.14, 339.27, 3
5.721, -0.7845, 0.0392, 10.4735, -0.0003, 0.0828, -0.0115, -28.3636, -18.8182, -27.0408, 0.8519, 4.0398, 150.6218, 4216.4756, 7148.4175, 183.80, 0.14, 339.27, 3
5.748, -0.8238, 0.0392, 10.5127, -0.0098, 0.0916, -0.0197, -28.3636, -18.9091, -27.0408, 0.6413, 4.9049, 150.7931, 4216.4756, 7148.4175, 183.80, 0.14, 339.27, 3
5.769, -0.8630, 0.0392, 10.3951, -0.0067, 0.0886, -0.0176, -28.3636, -18.9091, -27.0408, 0.2114, 4.0105, 149.6821, 4216.4756, 7148.4175, 183.80, 0.14, 339.27, 3
5.789, -0.9022, 0.0392, 10.5127, -0.0024, 0.0846, -0.0105, -28.3636, -18.9091, -27.0408, 0.0000, 4.4639, 149.7274, 4216.4756, 7148.4175, 183.80, 0.14, 339.27, 3
5.827, -0.9022, 0.0785, 10.3951, -0.0057, 0.0883, -0.0084, -28.6364, -19.0909, -26.8367, 0.4324, 4.9603, 150.5044, 4216.4756, 7148.4175, 183.80, 0.14, 339.27, 3
5.954, -0.7453, 0.0785, 10.3951, -0.0046, 0.0877, -0.0134, -28.6364, -19.0000, -26.6327, 0.4324, 4.1009, 150.0499, 4216.4756, 7148.4175, 183.80, 0.14, 339.27, 3
6.080, -0.7845, 0.0392, 10.5127, -0.0064, 0.0887, -0.0110, -28.6364, -18.8182, -26.6327, 0.2138, 3.6295, 149.6443, 4216.4756, 7148.4175, 183.80, 0.14, 339.27, 3
6.319, -0.8238, 0.0392, 10.2774, -0.0076, 0.0901, -0.0163, -28.3636, -19.1818, -26.8367, 0.4228, 4.4309, 149.8312, 4216.4756, 7148.4175, 183.80, 0.14, 339.27, 3
6.411, -0.8238, 0.1177, 10.5127, -0.0044, 0.0895, -0.0104, -28.3636, -19.0909, -26.8367, 0.0000, 3.8713, 149.0646, 4216.4756, 7148.4175, 183.80, 0.14, 339.27, 3
6.430, -0.7845, 0.0392, 10.5912, -0.0087, 0.0895, -0.0090, -28.4545, -18.8182, -26.5306, -0.2154, 4.2998, 149.4933, 4216.4756, 7148.4175, 183.80, 0.14, 339.27, 3
6.456, -0.8238, 0.0785, 10.3166, -0.0052, 0.0903, -0.0144, -28.4545, -18.8182, -26.5306, 0.4324, 4.9603, 150.6848, 4216.4756, 7148.4175, 183.80, 0.14, 339.27, 3
6.477, -0.8630, 0.0785, 10.5912, -0.0012, 0.0896, -0.0159, -28.4545, -18.8182, -26.5306, 0.4341, 5.4095, 150.9594, 4216.4761, 7148.4175, 183.70, 0.14, 339.27, 3
6.497, -0.8238, 0.0000, 10.6304, -0.0057, 0.0886, -0.0110, -28.5455, -18.8182, -26.4286, 0.4197, 3.9811, 150.1040, 4216.4761, 7148.4175, 183.70, 0.14, 339.27, 3
6.522, -0.8238, 0.1177, 10.4735, -0.0024, 0.0854, -0.0116, -28.5455, -18.8182, -26.4286, 0.6437, 4.4969, 150.7037, 4216.4761, 7148.4175, 183.70, 0.14, 339.27, 3
6.544, -0.7061, 0.0000, 10.3951, -0.0014, 0.0883, -0.0124, -28.5455, -18.8182, -26.4286, 0.0000, 3.8858, 149.5355, 4216.4761, 7148.4175, 183.70, 0.21, 340.08, 3
6.563, -0.7845, 0.1177, 10.4735, -0.0017, 0.0883, -0.0119, -28.7273, -18.8182, -26.3265, 0.6437, 4.2835, 150.6915, 4216.4761, 7148.4175, 183.70, 0.21, 340.08, 3
6.589, -0.7845, 0.1177, 10.3951, -0.0049, 0.0909, -0.0108, -28.7273, -18.8182, -26.3265, 0.2162, 4.9604, 150.6008, 4216.4761, 7148.4175, 183.70, 0.21, 340.08, 3
6.608, -0.8630, 0.0000, 10.5127, -0.0031, 0.0881, -0.0127, -28.7273, -18.8182, -26.3265, 0.0000, 4.2838, 149.9241, 4216.4761, 7148.4175, 183.70, 0.21, 340.08, 3
6.628, -0.8630, 0.0392, 10.5912, 0.0003, 0.0863, -0.0157, -28.6364, -18.8182, -26.7347, 0.6342, 3.7998, 150.3573, 4216.4761, 7148.4175, 183.70, 0.21, 340.08, 3
6.648, -0.6276, 0.1569, 10.4343, 0.0002, 0.0880, -0.0131, -28.6364, -18.8182, -26.7347, 0.8648, 4.3155, 150.9736, 4216.4761, 7148.4175, 183.70, 0.21, 340.08, 3
6.674, -0.9022, -0.1177, 10.5520, -0.0160, 0.0890, -0.0136, -28.6364, -18.8182, -26.7347, -0.6390, 4.8867, 149.5390, 4216.4761, 7148.4175, 183.70, 0.21, 340.08, 3
6.693, -0.9414, 0.2354, 10.3951, -0.0038, 0.0848, -0.0131, -28.6364, -18.8182, -26.7347, 1.2970, 5.1736, 151.8122, 4216.4761, 7148.4175, 183.70, 0.21, 340.08, 3
6.714, -0.6276, -0.1569, 10.8265, -0.0148, 0.0855, -0.0107, -28.3636, -18.8182, -26.6327, -0.8303, 3.3174, 148.0230, 4216.4761, 7148.4175, 183.70, 0.21, 340.08, 3
6.739, -0.6276, -0.0785, 10.5520, -0.0084, 0.0965, -0.0160, -28.3636, -18.8182, -26.6327, 1.3220, 4.3975, 151.3742, 4216.4761, 7148.4175, 183.70, 0.21, 340.08, 3
6.759, -0.8238, 0.4315, 10.0028, 0.0111, 0.0906, -0.0127, -28.3636, -18.8182, -26.6327, 0.2138, 4.4804, 150.3083, 4216.4761, 7148.4175, 183.70, 0.21, 340.08, 3
6.779, -0.8630, -0.1177, 10.4735, -0.0124, 0.1035, -0.0252, -28.5455, -18.6364, -26.6327, -1.0570, 4.6404, 149.0521, 4216.4761, 7148.4175, 183.70, 0.21, 340.08, 3
6.807, -0.8238, 0.0785, 10.1989, 0.0049, 0.1061, -0.0327, -28.5455, -18.6364, -26.6327, 2.2026, 4.3955, 152.8737, 4216.4761, 7148.4175, 183.70, 0.21, 340.08, 3
6.828, -0.7061, 0.0000, 10.4735, 0.0104, 0.1063, -0.0429, -28.5455, -18.6364, -26.6327, -0.2122, 3.8140, 149.4950, 4216.4761, 7148.4175, 183.70, 0.21, 340.08, 3
6.847, -0.9807, 0.0000, 11.1796, -0.0208, 0.1042, -0.0678, -28.3636, -18.6364, -26.6327, 1.1189, 4.4663, 151.4111, 4216.4761, 7148.4175, 183.70, 0.21, 340.08, 3
6.873, -0.9022, 0.3530, 10.5520, 0.0092, 0.0965, -0.0304, -28.3636, -18.6364, -26.6327, 1.9162, 4.8843, 152.6636, 4216.4761, 7148.4175, 183.70, 0.21, 340.08, 3
6.892, -0.5099, -0.0392, 10.6696, -0.0095, 0.0982, -0.0457, -28.3636, -18.6364, -26.6327, -0.2106, 2.7363, 148.5950, 4216.4761, 7148.4175, 183.70, 0.21, 340.08, 3
6.913, -0.8630, -0.0392, 10.7089, -0.0199, 0.1145, -0.0727, -28.5455, -18.9091, -26.7347, -0.2099, 4.6073, 149.6735, 4216.4761, 7148.4175, 183.70, 0.21, 340.08, 3
6.938, -1.2160, 0.0785, 10.0812, 0.0156, 0.0696, -0.0919, -28.5455, -18.9091, -26.7347, -1.0975, 3.9445, 148.1880, 4216.4761, 7148.4175, 183.70, 0.21, 340.08, 3
6.959, -0.6669, -0.2354, 10.5127, -0.0205, 0.1084, -0.1478, -28.5455, -18.9091, -26.7347, -0.2083, 4.3668, 149.5181, 4216.4761, 7148.4175, 183.70, 0.21, 340.08, 3
6.978, -0.8238, 0.1961, 10.4735, 0.0066, 0.0938, -0.2191, -27.9091, -19.1818, -26.6327, 1.7899, 5.1314, 151.5775, 4216.4761, 7148.4175, 183.70, 0.21, 340.08, 3
7.004, -1.3337, 0.0392, 10.5912, -0.0307, 0.0948, -0.1787, -27.9091, -19.1818, -26.6327, 0.2122, 7.1772, 150.8838, 4216.4761, 7148.4175, 183.70, 0.21, 340.08, 3
7.024, -0.3138, -0.7061, 12.6702, -0.0562, 0.0724, -0.1342, -27.9091, -19.1818, -26.6327, -3.1897, 1.4166, 142.9293, 4216.4761, 7148.4175, 183.70, 0.21, 340.08, 3
7.044, -0.2354, -0.1177, 9.5321, -0.0157, 0.1132, -0.1640, -27.7273, -19.4545, -26.8367, -0.7073, 1.4143, 145.2934, 4216.4761, 7148.4175, 183.70, 0.21, 340.08, 3
7.064, -0.7061, 0.0392, 10.2774, 0.0018, 0.0602, -0.0018, -27.7273, -19.4545, -26.8367, 0.2187, 3.9301, 148.3792, 4216.4761, 7148.4175, 183.70, 0.21, 340.08, 3
7.090, -1.2945, 0.1569, 10.7089, -0.0073, 0.0803, -0.0067, -27.7273, -19.4545, -26.8367, -0.8333, 6.6366, 148.9406, 4216.4761, 7148.4175, 183.70, 0.21, 340.08, 3
7.109, -1.0983, -0.3530, 10.1989, 0.0446, 0.0492, -0.1301, -27.8182, -19.7273, -26.7347, -0.2204, 5.0553, 148.3322, 4216.4761, 7148.4175, 183.70, 0.21, 340.08, 3
7.130, -0.8630, 0.3923, 10.9834, 0.2211, -0.0139, -0.2341, -27.8182, -19.7273, -26.7347, 1.4270, 3.6641, 149.3867, 4216.4761, 7148.4175, 183.70, 0.21, 340.08, 3
7.155, -1.0199, 0.5492, 9.9243, 0.1843, 0.0067, -0.2013, -27.8182, -19.7273, -26.7347, 2.4604, 7.5584, 152.9694, 4216.4761, 7148.4175, 183.70, 0.21, 340.08, 3
7.175, -1.2553, 0.0000, 10.9050, 0.1387, 0.2077, -0.1616, -27.7273, -20.4545, -26.3265, 0.5846, 6.2115, 148.9273, 4216.4761, 7148.4175, 183.70, 0.21, 340.08, 3
7.194, -0.8238, 0.2354, 11.8072, 0.1761, 0.2784, -0.2211, -27.7273, -20.4545, -26.3265, 0.3472, 2.9489, 146.4421, 4216.4761, 7148.4175, 183.70, 0.21, 340.08, 3
7.221, 0.0392, 0.2354, 13.0625, 0.1066, 0.1310, -0.2556, -27.7273, -20.4545, -26.3265, 1.0322, -0.1720, 144.7294, 4216.4761, 7148.4175, 183.70, 0.21, 340.08, 3
7.240, 0.0392, 0.5492, 11.9249, -0.1355, -0.0857, -0.1492, -27.7273, -20.4545, -26.3265, 2.6368, -0.1883, 146.4059, 4216.4761, 7148.4175, 183.70, 0.21, 340.08, 3
7.260, -0.5099, 0.4707, 10.8265, -0.3709, -0.1191, 0.0524, -27.6364, -20.7273, -26.5306, 2.4896, 2.6942, 148.5086, 4216.4761, 7148.4175, 183.70, 0.21, 340.08, 3
7.286, -0.6276, 0.0000, 10.0028, -0.5143, 0.2905, 0.2126, -27.6364, -20.7273, -26.5306, 0.2091, 3.1335, 146.0049, 4216.4761, 7148.4175, 183.70, 0.21, 340.08, 3
7.306, -0.3138, 0.0392, 10.8658, -0.4690, 0.3989, 0.2036, -27.6364, -20.7273, -26.5306, -0.4122, 1.4424, 146.0028, 4216.4761, 7148.4175, 183.70, 0.21, 340.08, 3
7.325, -0.4315, 0.1177, 10.4735, -0.3514, 0.2384, 0.1849, -28.0000, -19.1818, -28.1633, 1.5422, 3.7396, 150.7258, 4216.4761, 7148.4175, 183.70, 0.21, 340.08, 3
7.354, -1.1768, 0.0392, 9.5713, -0.0266, -0.0834, 0.1066, -28.0000, -19.1818, -28.1633, 0.2301, 8.6769, 152.0910, 4216.4761, 7148.4175, 183.70, 0.21, 340.08, 3
7.373, -1.5298, -0.1569, 10.2381, 0.2202, -0.0570, -0.0229, -28.0000, -19.1818, -28.1633, -0.6390, 8.2488, 150.8560, 4216.4761, 7148.4175, 183.70, 0.21, 340.08, 3
7.394, -1.1768, -0.0392, 10.5127, 0.3041, -0.0353, -0.2202, -28.5455, -19.0909, -27.8571, 0.8648, 4.1005, 150.5690, 4216.4761, 7148.4175, 183.70, 0.21, 340.08, 3
7.419, -0.2354, 0.4707, 10.3951, 0.2427, -0.0118, -0.3001, -28.5455, -19.0909, -27.8571, 2.5928, 1.2957, 150.9417, 4216.4761, 7148.4175, 183.70, 0.21, 340.08, 3
7.440, -0.4707, 0.3923, 10.7481, 0.1910, 0.0463, -0.1825, -28.5455, -19.0909, -27.8571, 2.0902, 2.5060, 151.1083, 4216.4761, 7148.4175, 183.70, 0.21, 340.08, 3
7.459, -0.4707, 0.1569, 10.7089, 0.1205, 0.0338, -0.0718, -28.2727, -20.1818, -27.5510, 0.8394, 2.5166, 147.6818, 4216.4761, 7148.4175, 183.70, 0.21, 340.08, 3
7.481, -0.6669, 0.1961, 10.7089, 0.0710, 0.0174, -0.0240, -28.2727, -20.1818, -27.5510, 1.0493, 3.5627, 148.7223, 4216.4766, 7148.4175, 183.70, 0.21, 340.08, 3
7.506, -0.8238, 0.0000, 10.5520, 0.0111, 0.0429, -0.0334, -28.2727, -20.1818, -27.5510, 0.0000, 3.9381, 147.6957, 4216.4766, 7148.4175, 183.70, 0.21, 340.08, 3
7.526, -0.7845, 0.2354, 10.5912, -0.0316, 0.0683, -0.0924, -28.4545, -20.4545, -27.6531, 0.8364, 2.9247, 147.7897, 4216.4766, 7148.4175, 183.70, 0.21, 340.08, 3
7.547, -0.3923, 0.2746, 10.8265, -0.0403, 0.0541, -0.1498, -28.4545, -20.4545, -27.6531, 2.7363, 1.0519, 148.8812, 4216.4766, 7148.4175, 183.70, 0.26, 344.76, 3
7.574, 0.0785, 0.6669, 10.3166, 0.0095, -0.0612, -0.1497, -28.4545, -20.4545, -27.6531, 4.4672, -0.0000, 150.6061, 4216.4766, 7148.4175, 183.70, 0.26, 344.76, 3
7.593, 0.0000, 0.9414, 10.0420, 0.0101, 0.0072, -0.0606, -28.2727, -21.2727, -27.6531, 4.7245, -0.0000, 149.6099, 4216.4766, 7148.4175, 183.70, 0.26, 344.76, 3
7.613, -0.2746, 0.4707, 9.5713, -0.0070, 0.0823, -0.0150, -28.2727, -21.2727, -27.6531, 2.8156, 1.6413, 148.1543, 4216.4766, 7148.4175, 183.70, 0.26, 344.76, 3
7.640, 0.0000, 0.2354, 11.1796, 0.0069, 0.2795, -0.0243, -28.2727, -21.2727, -27.6531, 1.2060, -0.0000, 144.5906, 4216.4771, 7148.4175, 183.70, 0.26, 344.76, 3
7.659, 0.4315, 0.5099, 10.4343, -0.0458, 0.1046, -0.1005, -27.9091, -21.3636, -28.0612, 2.7979, -2.3652, 144.0167, 4216.4771, 7148.4175, 183.70, 0.26, 344.76, 3
7.680, 0.4707, 0.5884, 9.3752, -0.0501, -0.0278, -0.0803, -27.9091, -21.3636, -28.0612, 3.5913, -2.8687, 144.6959, 4216.4771, 7148.4175, 183.70, 0.26, 344.76, 3
7.706, 0.2354, 0.4707, 9.4928, 0.0218, 0.0547, -0.0046, -27.9091, -21.3636, -28.0612, 2.8958, -0.4453, 146.0857, 4216.4771, 7148.4175, 183.70, 0.35, 335.11, 3
7.727, 0.0392, 0.6669, 9.8851, 0.0692, 0.1268, -0.0166, -27.7273, -21.3636, -28.3673, 4.3635, -0.9177, 147.7599, 4216.4771, 7148.4175, 183.70, 0.35, 335.11, 3
7.746, 0.1569, 0.8630, 9.4928, 0.0641, 0.1871, -0.0536, -27.7273, -21.3636, -28.3673, 4.1513, -0.4608, 147.8475, 4216.4771, 7148.4175, 183.70, 0.35, 335.11, 3
7.772, 0.1569, 0.2746, 10.4735, 0.0874, 0.3841, 0.0037, -27.7273, -21.3636, -28.3673, 1.5018, -0.8580, 143.5364, 4216.4771, 7148.4175, 183.70, 0.35, 335.11, 3
7.792, 0.5099, 0.3530, 11.1011, 0.1133, 0.3862, -0.0099, -26.8182, -21.5455, -29.0816, 1.8215, -2.6288, 140.7852, 4216.4771, 7148.4175, 183.70, 0.35, 335.11, 3
7.821, 0.1961, 0.6276, 10.2381, 0.0403, 0.0160, -0.0492, -26.8182, -21.5455, -29.0816, 3.5080, -1.0954, 145.1484, 4216.4771, 7148.4175, 183.70, 0.35, 335.11, 3
7.857, -0.0392, 0.3923, 10.5912, 0.0648, 0.0936, -0.0649, -27.2727, -21.6364, -28.9796, 1.4372, -1.0264, 142.4443, 4216.4771, 7148.4175, 183.70, 0.35, 335.11, 3
7.876, 0.3923, 0.3530, 11.0227, 0.0461, 0.1506, -0.0936, -27.2727, -21.6364, -28.9796, 2.0902, -2.0888, 142.2121, 4216.4771, 7148.4175, 183.70, 0.35, 335.11, 3
7.896, 0.4315, 0.3138, 10.5912, -0.0565, 0.1132, -0.0864, -27.2727, -21.6364, -28.9796, 1.0649, -0.8518, 142.1093, 4216.4771, 7148.4175, 183.70, 0.35, 335.11, 3
7.916, -0.0785, 0.1569, 10.7089, -0.1138, 0.1208, -0.0670, -27.2727, -21.6364, -28.9796, 0.6342, 1.0569, 143.4612, 4216.4771, 7148.4175, 183.70, 0.35, 335.11, 3
7.944, -0.2354, 0.0392, 10.5127, -0.0942, 0.0794, -0.1277, -27.1818, -21.4545, -29.2857, -0.8519, 1.9160, 142.5263, 4216.4771, 7148.4175, 183.70, 0.35, 335.11, 3
7.964, -0.3923, -0.0785, 10.5912, -0.0140, 0.0629, -0.1932, -27.1818, -21.4545, -29.2857, -0.2154, 1.2922, 142.7370, 4216.4771, 7148.4175, 183.70, 0.35, 335.11, 3
7.984, -0.0785, 0.0392, 10.0420, -0.0275, 0.0615, -0.2327, -27.1818, -21.4545, -29.2857, 0.2265, 0.6794, 142.7128, 4216.4771, 7148.4175, 183.70, 0.35, 335.11, 3
8.010, -0.6669, -0.3138, 10.2774, 0.0148, 0.1329, -0.2857, -27.0000, -21.2727, -28.6735, -1.7489, 3.7107, 143.0900, 4216.4771, 7148.4175, 183.70, 0.35, 335.11, 3
8.030, -0.9022, -0.4315, 10.9050, 0.1480, 0.1060, -0.4007, -27.0000, -21.2727, -28.6735, -2.2659, 4.7258, 143.3445, 4216.4771, 7148.4175, 183.70, 0.35, 335.11, 3
8.050, -0.6276, -0.1961, 10.9050, 0.2424, 0.0473, -0.4916, -27.0000, -21.2727, -28.6735, -1.0304, 3.2934, 143.5792, 4216.4771, 7148.4175, 183.70, 0.35, 335.11, 3
8.076, -0.1961, -0.0785, 10.6304, 0.2595, 0.0473, -0.4829, -26.5455, -22.1818, -28.3673, -1.4962, -0.0000, 138.3040, 4216.4771, 7148.4175, 183.70, 0.35, 335.11, 3
8.095, 0.0785, -0.2354, 10.7089, 0.2718, -0.0024, -0.4655, -26.5455, -22.1818, -28.3673, -0.4197, -0.6296, 138.9172, 4216.4771, 7148.4175, 183.70, 0.35, 335.11, 3
8.116, 0.3530, -0.0785, 10.7089, 0.2146, -0.1170, -0.4569, -26.5455, -22.1818, -28.3673, 1.2637, -2.7357, 138.6686, 4216.4771, 7148.4175, 183.70, 0.35, 335.11, 3
8.141, 0.1177, 0.1569, 10.2774, 0.1278, -0.1063, -0.3173, -26.2727, -22.7273, -27.7551, 0.8747, -0.6560, 139.5258, 4216.4771, 7148.4175, 183.70, 0.35, 335.11, 3
8.161, -0.5884, -0.3138, 10.4735, 0.0426, 0.0802, -0.1518, -26.2727, -22.7273, -27.7551, -1.7162, 3.2140, 140.2647, 4216.4771, 7148.4175, 183.70, 0.35, 335.11, 3
8.181, -0.2746, -0.2746, 10.3951, -0.0082, 0.1190, -0.1894, -26.2727, -22.7273, -27.7551, -1.5131, 1.5126, 138.9101, 4216.4771, 7148.4175, 183.70, 0.35, 335.11, 3
8.207, 0.3138, 0.1177, 10.5127, 0.0238, 0.0281, -0.2749, -26.1818, -22.8182, -27.8571, 1.4962, -2.5629, 137.9239, 4216.4771, 7148.4175, 183.70, 0.35, 335.11, 3
8.227, 0.7061, 0.3530, 10.3558, 0.0855, -0.0954, -0.2135, -26.1818, -22.8182, -27.8571, 2.1611, -3.6679, 137.4399, 4216.4771, 7148.4175, 183.70, 0.35, 335.11, 3
8.247, 0.5492, 0.4315, 9.7282, 0.0817, -0.1032, -0.0079, -26.1818, -22.8182, -27.8571, 0.6903, -1.6102, 138.0056, 4216.4771, 7148.4175, 183.70, 0.35, 335.11, 3
8.272, 0.1177, -0.0392, 9.8851, -0.1038, 0.1697, 0.2002, -26.8182, -22.1818, -28.0612, -0.8681, -0.8680, 138.4269, 4216.4771, 7148.4175, 183.70, 0.35, 335.11, 3
8.293, 0.1177, -0.1569, 10.3951, -0.1747, 0.2636, 0.2144, -26.8182, -22.1818, -28.0612, -1.2873, -0.8581, 137.9414, 4216.4771, 7148.4175, 183.70, 0.35, 335.11, 3
8.312, 0.1961, -0.2746, 10.3951, -0.3016, 0.2937, 0.2106, -26.8182, -22.1818, -28.0612, -0.6662, -0.2221, 139.3597, 4216.4771, 7148.4175, 183.70, 0.35, 335.11, 3
8.338, 0.0392, -0.6669, 10.0812, -0.2731, 0.0791, 0.2282, -26.7273, -20.3636, -28.7755, -3.7845, -0.2225, 137.7538, 4216.4771, 7148.4175, 183.70, 0.35, 335.11, 3
8.358, -0.2746, -0.1961, 10.5912, -0.1124, -0.0313, 0.1587, -26.7273, -20.3636, -28.7755, -1.0609, 1.4849, 142.7853, 4216.4771, 7148.4175, 183.70, 0.35, 335.11, 3
8.379, 0.0000, 0.0785, 10.3951, -0.0368, -0.1345, 0.0962, -26.7273, -20.3636, -28.7755, 0.4324, -0.0000, 143.2914, 4216.4771, 7148.4175, 183.70, 0.35, 335.11, 3
8.398, -0.1569, -0.0785, 9.8459, -0.0318, -0.1242, 0.1103, -26.7273, -20.3636, -28.7755, -0.4565, 0.9130, 143.0091, 4216.4771, 7148.4175, 183.70, 0.35, 335.11, 3
8.424, -0.3923, -0.6276, 10.1597, -0.0031, 0.1318, 0.1768, -27.2727, -19.1818, -28.4694, 0.1969, 2.3614, 147.2949, 4216.4771, 7148.4175, 183.70, 0.35, 335.11, 3
8.443, 0.0000, -1.0199, 9.9636, 0.0918, 0.1006, 0.0701, -27.2727, -19.1818, -28.4694, -3.3665, 0.6308, 141.1743, 4216.4771, 7148.4175, 183.70, 0.35, 335.11, 3
8.464, -0.2354, -0.5492, 11.1404, 0.0247, 0.0360, -0.0718, -27.2727, -19.1818, -28.4694, -2.5448, -0.0000, 141.5294, 4216.4771, 7148.4175, 183.70, 0.35, 335.11, 3
8.492, 0.0785, -0.3138, 10.3558, 0.0134, -0.0412, -0.1591, -27.3636, -18.8182, -28.5714, -1.9234, -0.2137, 142.6560, 4216.4771, 7148.4175, 183.70, 0.35, 335.11, 3
8.512, 0.0000, -0.3530, 10.8265, 0.0554, -0.0058, -0.1651, -27.3636, -18.8182, -28.5714, -1.2103, -0.4034, 143.4052, 4216.4771, 7148.4175, 183.70, 0.35, 335.11, 3
8.531, 0.1177, -0.1177, 11.2580, 0.0785, -0.0006, -0.1721, -27.3636, -18.8182, -28.5714, 0.0000, -1.6250, 143.8103, 4216.4771, 7148.4175, 183.70, 0.35, 335.11, 3
8.570, -0.1569, -0.3530, 10.7089, -0.0299, 0.1071, -0.0043, -27.6364, -18.5455, -28.2653, -1.8882, 0.8390, 144.3910, 4216.4771, 7148.4175, 183.70, 0.35, 335.11, 3
8.696, -0.0392, -0.5099, 9.8067, -0.0504, 0.3065, 0.1701, -28.2727, -17.6364, -28.4694, -2.9767, 0.2289, 144.2184, 4216.4771, 7148.4175, 183.70, 0.35, 335.11, 3
8.821, -0.5492, -0.0392, 10.9050, 0.0466, 0.1704, 0.1313, -28.7273, -16.4545, -27.9592, -1.6079, 5.8078, 152.2255, 4216.4771, 7148.4175, 183.70, 0.35, 335.11, 3
9.058, 0.6276, 0.3138, 10.7481, -0.0713, 0.0194, 0.0224, -29.2727, -14.3636, -28.0612, 1.6724, -3.3405, 153.9237, 4216.4771, 7148.4175, 183.70, 0.35, 335.11, 3
9.142, 0.7453, 1.0591, 10.0420, -0.2109, -0.1475, -0.1190, -29.7273, -14.0909, -27.7551, 4.8016, -2.9663, 160.9473, 4216.4771, 7148.4175, 183.70, 0.35, 335.11, 3
9.162, -0.1569, 0.1961, 9.7674, -0.2352, -0.1252, -0.0356, -30.6364, -13.1818, -27.5510, -1.7489, 4.3632, 156.8832, 4216.4771, 7148.4175, 183.70, 0.35, 335.11, 3
9.188, -0.3138, -0.1569, 10.8658, 0.0428, -0.1187, -0.2184, -30.6364, -13.1818, -27.5510, -0.8273, 1.6541, 156.5560, 4216.4771, 7148.4175, 183.70, 0.35, 335.11, 3
9.207, 0.9414, 0.9414, 10.1205, 0.0308, -0.1197, -0.3532, -30.6364, -13.1818, -27.5510, 5.3145, -5.2918, 162.9464, 4216.4771, 7148.4175, 183.70, 0.35, 335.11, 3
9.228, 1.0983, 0.5884, 9.2575, -0.1480, 0.1746, -0.0351, -30.4545, -12.9091, -27.0408, 3.6368, -6.7527, 158.6588, 4216.4771, 7148.4175, 183.70, 0.35, 335.11, 3
9.253, -0.1569, -0.3138, 11.3757, -0.2005, 0.4763, 0.3016, -30.4545, -12.9091, -27.0408, -1.1017, 2.7520, 157.1161, 4216.4771, 7148.4175, 183.70, 0.35, 335.11, 3
9.273, -0.8630, -0.2354, 12.4741, -0.2382, 0.2822, 0.2491, -30.4545, -12.9091, -27.0408, -0.7538, 3.9513, 158.2260, 4216.4771, 7148.4175, 183.70, 0.35, 335.11, 3
9.293, -0.7061, -0.2354, 10.8265, -0.1391, 0.0000, 0.0472, -30.6364, -11.5455, -27.6531, -0.6740, 5.3763, 161.1070, 4216.4771, 7148.4175, 183.70, 0.35, 335.11, 3
9.319, -0.7845, -0.1177, 9.6497, 0.0567, 0.0417, -0.1161, -30.6364, -11.5455, -27.6531, -0.6987, 4.6476, 160.7514, 4216.4771, 7148.4175, 183.70, 0.35, 335.11, 3
9.338, 0.0785, -0.1177, 9.8067, 0.1384, 0.2172, -0.2888, -30.6364, -11.5455, -27.6531, -0.6875, -0.4583, 157.9813, 4216.4771, 7148.4175, 183.70, 0.35, 335.11, 3
